City_ID,City,Country,Lat,Lng,Max Temp,Humidity,Cloudiness,Wind Speed,Current Description,Date
0,Hobart,AU,-42.8794,147.3294,48.06,70,40,1.99,scattered clouds,2021-10-09 15:25:10
1,Bluff,NZ,-46.6,168.3333,42.8,92,68,8.84,broken clouds,2021-10-09 15:24:04
2,Terme,TR,41.2092,36.9739,64.96,88,2,6.15,clear sky,2021-10-09 15:27:18
3,Thompson,CA,55.7435,-97.8558,32.16,100,90,2.3,fog,2021-10-09 15:25:44
4,Chanderi,IN,24.7167,78.1333,79.18,57,68,7.47,broken clouds,2021-10-09 15:27:19
5,Timra,SE,62.487,17.3257,56.91,90,85,4.61,overcast clouds,2021-10-09 15:27:19
6,Albany,US,42.6001,-73.9662,64.17,76,100,1.99,overcast clouds,2021-10-09 15:22:19
7,Busselton,AU,-33.65,115.3333,47.08,79,1,10.2,clear sky,2021-10-09 15:23:50
8,Rikitea,PF,-23.1203,-134.9692,74.17,80,7,17.16,clear sky,2021-10-09 15:23:51
9,Vaini,TO,-21.2,-175.2,68.16,100,75,6.91,thunderstorm,2021-10-09 15:23:46
10,Mahebourg,MU,-20.4081,57.7,73.69,73,40,14.97,light rain,2021-10-09 15:23:55
11,Clyde River,CA,70.4692,-68.5914,32.77,76,39,12.21,scattered clouds,2021-10-09 15:25:06
12,Camopi,GF,3.1655,-52.3158,90.36,47,100,3.98,overcast clouds,2021-10-09 15:27:21
13,Aden,YE,12.7794,45.0367,86.76,74,22,10.78,few clouds,2021-10-09 15:26:25
14,Basoko,CD,1.2391,23.616,88.16,55,93,0.96,overcast clouds,2021-10-09 15:27:21
15,Puerto Ayora,EC,-0.7393,-90.3518,73.36,81,99,10.98,overcast clouds,2021-10-09 15:24:12
16,Kavieng,PG,-2.5744,150.7967,81.03,80,100,8.66,overcast clouds,2021-10-09 15:23:43
17,Najran,SA,17.4924,44.1277,84.85,23,11,14.88,few clouds,2021-10-09 15:23:58
18,Sao Jose Da Coroa Grande,BR,-8.8978,-35.1478,82.0,62,96,10.98,overcast clouds,2021-10-09 15:24:25
19,Abu Dhabi,AE,24.4667,54.3667,91.51,75,0,8.05,clear sky,2021-10-09 15:25:12
20,Qaanaaq,GL,77.484,-69.3632,23.94,94,100,10.98,light snow,2021-10-09 15:24:33
21,Lagoa,PT,39.05,-27.9833,69.6,72,17,16.78,few clouds,2021-10-09 15:24:03
22,Ericeira,PT,38.9627,-9.4156,79.47,78,90,12.33,overcast clouds,2021-10-09 15:27:22
23,Sibolga,ID,1.7427,98.7792,79.18,85,78,2.3,broken clouds,2021-10-09 15:25:43
24,Butaritari,KI,3.0707,172.7902,80.98,71,72,15.03,broken clouds,2021-10-09 15:24:21
25,Port Elizabeth,ZA,-33.918,25.5701,68.09,59,20,26.46,few clouds,2021-10-09 15:21:32
26,Vaitape,PF,-16.5167,-151.75,77.54,71,13,6.06,few clouds,2021-10-09 15:27:23
27,Kaitangata,NZ,-46.2817,169.8464,41.77,95,43,4.41,scattered clouds,2021-10-09 15:25:08
28,Bintulu,MY,3.1667,113.0333,79.21,100,20,0.0,few clouds,2021-10-09 15:27:24
29,Belmonte,BR,-15.8631,-38.8828,75.2,76,98,11.43,overcast clouds,2021-10-09 15:26:47
30,Maniitsoq,GL,65.4167,-52.9,33.19,45,92,10.63,overcast clouds,2021-10-09 15:27:25
31,Atuona,PF,-9.8,-139.0333,77.63,71,17,18.03,few clouds,2021-10-09 15:24:00
32,Punta Arenas,CL,-53.15,-70.9167,57.31,47,40,17.27,light rain,2021-10-09 15:24:41
33,Agirish,RU,61.9247,63.0231,33.71,65,68,9.42,broken clouds,2021-10-09 15:27:26
34,High Level,CA,58.5169,-117.136,41.11,81,75,3.44,broken clouds,2021-10-09 15:27:26
35,Cabo San Lucas,MX,22.8909,-109.9124,87.51,53,1,0.0,clear sky,2021-10-09 15:27:26
36,Aklavik,CA,68.2191,-135.0107,32.0,80,75,4.61,broken clouds,2021-10-09 15:26:48
37,Mersing,MY,2.4312,103.8405,80.51,89,65,5.75,broken clouds,2021-10-09 15:27:27
38,East London,ZA,-33.0153,27.9116,67.14,63,0,23.02,clear sky,2021-10-09 15:24:29
39,Lebanon,US,36.2081,-86.2911,78.8,76,1,4.61,clear sky,2021-10-09 15:24:00
40,Parauna,BR,-16.9478,-50.4486,93.04,29,77,6.69,broken clouds,2021-10-09 15:27:27
41,Saint-Augustin,CA,51.226,-58.6502,46.87,48,8,7.14,clear sky,2021-10-09 15:27:28
42,Lock Haven,US,41.137,-77.4469,66.9,86,100,8.32,overcast clouds,2021-10-09 15:27:28
43,Tsaratanana,MG,-16.7833,47.65,78.6,50,82,14.34,broken clouds,2021-10-09 15:27:29
44,Carnarvon,AU,-24.8667,113.6333,64.47,72,0,20.71,clear sky,2021-10-09 15:25:09
45,Husavik,IS,66.0449,-17.3389,42.71,93,100,9.24,overcast clouds,2021-10-09 15:25:41
46,Yagodnoye,RU,62.55,149.6667,5.97,92,13,4.41,few clouds,2021-10-09 15:27:29
47,Lokosovo,RU,61.1333,74.8167,36.28,65,69,13.85,broken clouds,2021-10-09 15:27:31
48,Saldanha,ZA,-33.0117,17.9442,63.09,74,0,16.31,clear sky,2021-10-09 15:25:05
49,Hermanus,ZA,-34.4187,19.2345,69.91,63,11,6.93,few clouds,2021-10-09 15:24:24
50,Sabang,ID,5.8933,95.3214,82.94,80,91,19.98,overcast clouds,2021-10-09 15:27:31
51,Upernavik,GL,72.7868,-56.1549,30.76,52,100,14.63,overcast clouds,2021-10-09 15:25:09
52,Laguna,US,38.421,-121.4238,56.1,84,1,1.01,clear sky,2021-10-09 15:27:32
53,Alice Springs,AU,-23.7,133.8833,81.95,18,96,11.5,overcast clouds,2021-10-09 15:24:54
54,Fare,PF,-16.7,-151.0167,77.32,71,2,4.18,clear sky,2021-10-09 15:27:32
55,Alofi,NU,-19.0595,-169.9187,69.69,100,91,1.14,overcast clouds,2021-10-09 15:24:52
56,Khatanga,RU,71.9667,102.5,17.37,96,100,3.36,overcast clouds,2021-10-09 15:24:37
57,Cape Town,ZA,-33.9258,18.4232,72.1,44,20,17.27,few clouds,2021-10-09 15:19:04
58,Helong,CN,42.5397,128.9972,56.07,98,100,4.14,light rain,2021-10-09 15:27:33
59,Cherskiy,RU,68.75,161.3,0.66,100,96,3.56,overcast clouds,2021-10-09 15:27:34
60,Jamestown,US,42.097,-79.2353,64.09,96,90,8.01,mist,2021-10-09 15:21:05
61,Port Alfred,ZA,-33.5906,26.891,65.21,71,1,25.61,clear sky,2021-10-09 15:23:50
62,Lagunas,PE,-5.2269,-75.6753,92.93,45,27,3.58,scattered clouds,2021-10-09 15:27:34
63,Vinces,EC,-1.55,-79.7333,80.49,49,24,1.59,few clouds,2021-10-09 15:27:35
64,Ushuaia,AR,-54.8,-68.3,46.06,61,75,14.97,light rain,2021-10-09 15:23:54
65,Saint-Philippe,RE,-21.3585,55.7679,71.22,83,52,14.2,light rain,2021-10-09 15:24:38
66,Mataura,NZ,-46.1927,168.8643,42.48,98,42,3.09,scattered clouds,2021-10-09 15:23:47
67,Iskateley,RU,67.6803,53.1512,31.96,77,97,8.84,overcast clouds,2021-10-09 15:27:36
68,Kapaa,US,22.0752,-159.319,76.12,77,90,7.0,light rain,2021-10-09 15:24:33
69,Labuan,MY,5.2767,115.2417,84.11,89,20,0.0,heavy intensity rain,2021-10-09 15:27:37
70,Henties Bay,NA,-22.116,14.2845,60.85,66,7,11.16,clear sky,2021-10-09 15:26:02
71,Bima,ID,-8.4667,118.7167,78.08,80,91,5.91,overcast clouds,2021-10-09 15:26:23
72,Mezen,RU,65.8522,44.24,35.02,83,100,0.54,overcast clouds,2021-10-09 15:27:38
73,Buraydah,SA,26.326,43.975,95.45,12,0,9.4,clear sky,2021-10-09 15:27:38
74,Mitsamiouli,KM,-11.3847,43.2844,80.89,65,40,20.71,light rain,2021-10-09 15:27:39
75,Tasiilaq,GL,65.6145,-37.6368,35.76,69,93,5.91,overcast clouds,2021-10-09 15:25:24
76,Little Current,CA,45.9793,-81.9248,64.49,96,100,10.83,overcast clouds,2021-10-09 15:27:40
77,Tabuk,PH,17.4189,121.4443,74.77,89,29,4.36,scattered clouds,2021-10-09 15:27:40
78,Hilo,US,19.7297,-155.09,71.33,94,90,4.61,moderate rain,2021-10-09 15:21:02
79,Noumea,NC,-22.2763,166.4572,64.38,73,32,9.28,scattered clouds,2021-10-09 15:27:40
80,Pirai,BR,-22.6292,-43.8981,72.48,86,100,3.2,overcast clouds,2021-10-09 15:27:41
81,Narsaq,GL,60.9167,-46.05,37.62,50,4,3.51,clear sky,2021-10-09 15:24:57
82,Seydi,TM,39.4816,62.9137,50.36,37,23,9.15,few clouds,2021-10-09 15:27:41
83,Bilma,NE,18.6853,12.9164,96.89,10,8,1.16,clear sky,2021-10-09 15:27:42
84,Brae,GB,60.3964,-1.353,55.31,98,100,14.67,overcast clouds,2021-10-09 15:27:42
85,Almaty,KZ,43.25,76.95,46.31,53,75,4.47,heavy intensity rain,2021-10-09 15:22:59
86,Luena,AO,-11.7833,19.9167,92.19,16,11,9.15,few clouds,2021-10-09 15:27:43
87,Adeje,ES,28.1227,-16.726,76.3,59,20,24.16,few clouds,2021-10-09 15:27:46
88,Arraial Do Cabo,BR,-22.9661,-42.0278,71.56,64,90,12.66,overcast clouds,2021-10-09 15:24:34
89,Santa Cruz,BO,-17.8,-63.1667,95.05,46,40,16.11,scattered clouds,2021-10-09 15:27:47
90,Yellowknife,CA,62.456,-114.3525,42.42,100,90,1.01,overcast clouds,2021-10-09 15:22:29
91,Castro,BR,-24.7911,-50.0119,57.79,96,100,7.2,overcast clouds,2021-10-09 15:22:38
92,Samarai,PG,-10.6167,150.6667,79.12,84,88,17.25,overcast clouds,2021-10-09 15:25:47
93,Touros,BR,-5.1989,-35.4608,88.7,56,70,16.51,broken clouds,2021-10-09 15:25:37
94,Yuzhou,CN,34.1628,113.4639,59.27,76,98,9.35,light rain,2021-10-09 15:27:49
95,Banda Aceh,ID,5.5577,95.3222,80.37,82,67,12.66,broken clouds,2021-10-09 15:25:03
96,Saint George,US,37.1041,-113.5841,61.36,98,75,3.44,fog,2021-10-09 15:20:56
97,Port Lincoln,AU,-34.7333,135.8667,51.42,73,48,11.95,scattered clouds,2021-10-09 15:24:54
98,Kununurra,AU,-15.7667,128.7333,78.78,61,18,3.44,few clouds,2021-10-09 15:27:49
99,New Norfolk,AU,-42.7826,147.0587,47.7,64,30,3.0,scattered clouds,2021-10-09 15:24:13
100,Kodiak,US,57.79,-152.4072,47.71,49,75,10.36,broken clouds,2021-10-09 15:24:45
101,Mount Isa,AU,-20.7333,139.5,83.97,30,85,5.75,overcast clouds,2021-10-09 15:26:41
102,Tiksi,RU,71.6872,128.8694,22.82,85,98,8.23,overcast clouds,2021-10-09 15:25:20
103,Saint-Pierre,RE,-21.3393,55.4781,71.29,82,90,20.71,light rain,2021-10-09 15:24:22
104,Songadh,IN,21.1667,73.5667,78.6,90,100,3.6,overcast clouds,2021-10-09 15:27:50
105,Deputatskiy,RU,69.3,139.9,16.05,86,100,4.79,overcast clouds,2021-10-09 15:27:51
106,Fairbanks,US,64.8378,-147.7164,37.31,91,90,0.0,light snow,2021-10-09 15:25:32
107,Bethel,US,41.3712,-73.414,66.29,76,90,3.0,overcast clouds,2021-10-09 15:23:48
108,Nome,US,64.5011,-165.4064,37.47,70,90,6.91,overcast clouds,2021-10-09 15:24:03
109,Lake Havasu City,US,34.4839,-114.3224,68.23,29,1,1.01,clear sky,2021-10-09 15:23:31
110,Grand Gaube,MU,-20.0064,57.6608,73.8,75,11,8.99,few clouds,2021-10-09 15:25:40
111,Nikolskoye,RU,59.7035,30.7861,53.87,81,100,6.2,light rain,2021-10-09 15:24:38
112,Bredasdorp,ZA,-34.5322,20.0403,68.29,52,21,12.66,few clouds,2021-10-09 15:24:47
113,Bambous Virieux,MU,-20.3428,57.7575,73.65,73,40,14.97,light rain,2021-10-09 15:24:26
114,Lasa,IT,46.6166,10.7002,61.68,54,6,3.4,clear sky,2021-10-09 15:26:09
115,Torbay,CA,47.6666,-52.7314,47.57,79,75,35.68,light rain,2021-10-09 15:25:41
116,Longyearbyen,SJ,78.2186,15.6401,21.04,73,20,8.05,few clouds,2021-10-09 15:24:12
117,Praia Da Vitoria,PT,38.7333,-27.0667,75.76,73,20,14.56,few clouds,2021-10-09 15:27:55
118,Krasnoselkup,RU,65.7,82.4667,30.13,80,100,18.05,overcast clouds,2021-10-09 15:26:46
119,Shitanjing,CN,39.2342,106.3439,40.19,27,35,11.5,scattered clouds,2021-10-09 15:27:55
120,Arenzano,IT,44.4052,8.6832,69.55,42,20,13.8,few clouds,2021-10-09 15:27:56
121,Saskylakh,RU,71.9167,114.0833,8.64,100,100,2.62,overcast clouds,2021-10-09 15:24:15
122,Lorengau,PG,-2.0226,147.2712,81.43,77,85,4.41,overcast clouds,2021-10-09 15:27:56
123,Cozumel,MX,20.5083,-86.9458,88.0,84,40,1.99,scattered clouds,2021-10-09 15:27:56
124,Baherden,TM,38.4362,57.4316,52.5,27,0,3.94,clear sky,2021-10-09 15:27:57
125,Havre-Saint-Pierre,CA,50.2334,-63.5986,52.39,66,1,4.61,clear sky,2021-10-09 15:27:57
126,Pasni,PK,25.2631,63.471,81.99,74,0,9.04,clear sky,2021-10-09 15:27:57
127,Geraldton,AU,-28.7667,114.6,57.61,62,0,13.8,clear sky,2021-10-09 15:25:28
128,Iqaluit,CA,63.7506,-68.5145,37.13,86,90,8.01,overcast clouds,2021-10-09 15:24:45
129,Paracale,PH,14.2804,122.7881,78.3,89,54,5.66,broken clouds,2021-10-09 15:27:58
130,Lavrentiya,RU,65.5833,-171.0,29.97,83,89,11.32,overcast clouds,2021-10-09 15:24:27
131,Saint-Louis,SN,16.3333,-15.0,103.64,13,100,4.76,overcast clouds,2021-10-09 15:27:59
132,Bhikhi,IN,30.0667,75.5333,82.45,32,0,4.03,clear sky,2021-10-09 15:27:59
133,Ozerne,UA,50.1782,28.7338,46.29,39,17,7.49,few clouds,2021-10-09 15:27:59
134,Westonaria,ZA,-26.3191,27.6486,80.69,9,4,12.66,clear sky,2021-10-09 15:28:00
135,Kostomuksha,RU,64.571,30.5767,47.55,94,100,5.5,overcast clouds,2021-10-09 15:28:00
136,Zapolyarnyy,RU,69.4154,30.8136,36.68,99,100,8.93,overcast clouds,2021-10-09 15:28:00
137,Nyurba,RU,63.2842,118.3319,34.84,96,100,13.06,overcast clouds,2021-10-09 15:28:01
138,Fortuna,US,40.5982,-124.1573,45.43,89,9,3.51,clear sky,2021-10-09 15:23:53
139,Ponta Do Sol,PT,32.6667,-17.1,78.71,68,20,1.21,few clouds,2021-10-09 15:24:22
140,Avarua,CK,-21.2078,-159.775,66.25,94,98,2.3,overcast clouds,2021-10-09 15:25:27
141,Basco,PH,20.4487,121.9702,83.75,79,31,23.94,scattered clouds,2021-10-09 15:28:02
142,Cerro Largo,BR,-28.1486,-54.7381,69.35,93,100,5.14,heavy intensity rain,2021-10-09 15:28:03
143,Ancud,CL,-41.8697,-73.8203,60.33,70,0,3.69,clear sky,2021-10-09 15:24:23
144,Cassia,BR,-20.5831,-46.9219,87.44,49,34,2.53,scattered clouds,2021-10-09 15:28:03
145,Moerai,PF,-22.4333,-151.3333,73.44,75,21,2.95,few clouds,2021-10-09 15:28:04
146,Kuzino,RU,57.0224,59.4412,41.36,86,100,8.9,overcast clouds,2021-10-09 15:28:04
147,Ankazobe,MG,-18.3167,47.1167,64.81,54,100,7.85,overcast clouds,2021-10-09 15:28:05
148,Necochea,AR,-38.5473,-58.7368,68.04,54,0,5.17,clear sky,2021-10-09 15:28:05
149,Simao,CN,22.7886,100.9748,63.61,94,100,2.62,overcast clouds,2021-10-09 15:28:05
150,Tual,ID,-5.6667,132.75,82.26,77,79,8.21,broken clouds,2021-10-09 15:23:56
151,Panguipulli,CL,-39.6333,-72.3333,53.31,41,9,2.93,clear sky,2021-10-09 15:28:06
152,Mayo,US,38.8876,-76.5119,71.26,83,90,11.99,overcast clouds,2021-10-09 15:24:02
153,Vardo,NO,70.3705,31.1107,38.05,97,100,11.48,overcast clouds,2021-10-09 15:24:24
154,Muros,ES,42.7762,-9.0603,74.84,52,100,11.9,overcast clouds,2021-10-09 15:28:07
155,Hithadhoo,MV,-0.6,73.0833,83.55,67,100,7.14,overcast clouds,2021-10-09 15:24:17
156,Nabire,ID,-3.3667,135.4833,78.35,89,88,1.86,overcast clouds,2021-10-09 15:24:58
157,Oulainen,FI,64.2667,24.8,51.26,88,48,6.46,scattered clouds,2021-10-09 15:28:07
158,Benguela,AO,-12.5763,13.4055,76.57,71,76,8.08,broken clouds,2021-10-09 15:28:08
159,Puerto Quijarro,BO,-17.7833,-57.7667,103.28,28,40,7.61,scattered clouds,2021-10-09 15:28:09
160,Magaria,NE,12.9983,8.9099,97.57,11,100,8.43,overcast clouds,2021-10-09 15:28:09
161,Sinnamary,GF,5.3833,-52.95,87.69,62,100,8.77,overcast clouds,2021-10-09 15:28:10
162,Victoria,HK,22.2855,114.1577,79.32,94,100,1.01,moderate rain,2021-10-09 15:26:37
163,Seoul,KR,37.5683,126.9778,71.04,94,0,2.3,clear sky,2021-10-09 15:25:28
164,Chokurdakh,RU,70.6333,147.9167,1.02,100,98,4.52,overcast clouds,2021-10-09 15:24:00
165,Bereda,ES,43.2686,-7.5406,68.0,59,79,8.37,broken clouds,2021-10-09 15:28:12
166,Tarauaca,BR,-8.1614,-70.7656,92.17,47,93,3.98,overcast clouds,2021-10-09 15:28:12
167,Itarema,BR,-2.9248,-39.9167,88.14,57,43,18.86,scattered clouds,2021-10-09 15:25:35
168,Pemangkat,ID,1.1667,108.9667,82.2,78,49,11.16,scattered clouds,2021-10-09 15:28:13
169,Kasama,ZM,-10.2129,31.1808,90.84,14,35,7.65,scattered clouds,2021-10-09 15:28:13
170,Aasiaat,GL,68.7098,-52.8699,23.49,68,100,7.81,overcast clouds,2021-10-09 15:28:13
171,Bubaque,GW,11.2833,-15.8333,83.12,73,100,8.5,overcast clouds,2021-10-09 15:28:14
172,Lardos,GR,36.0942,28.0157,78.62,63,0,6.8,clear sky,2021-10-09 15:28:14
173,Constitucion,CL,-35.3333,-72.4167,58.69,67,1,5.88,clear sky,2021-10-09 15:28:15
174,Tocopilla,CL,-22.092,-70.1979,65.93,70,23,10.0,few clouds,2021-10-09 15:28:16
175,Pravdinsk,RU,54.4429,21.0179,51.64,46,92,2.26,overcast clouds,2021-10-09 15:28:16
176,Satrikh,IN,26.8667,81.2,82.47,59,0,5.21,clear sky,2021-10-09 15:28:17
177,Chicama,PE,-7.8447,-79.1469,59.54,70,74,6.69,broken clouds,2021-10-09 15:28:17
178,Shache,CN,38.4167,77.2406,52.5,25,27,9.31,scattered clouds,2021-10-09 15:28:18
179,Leshukonskoye,RU,64.8989,45.7622,34.09,89,100,1.36,overcast clouds,2021-10-09 15:28:18
180,Lebowakgomo,ZA,-24.2,29.5,86.9,16,28,7.29,scattered clouds,2021-10-09 15:28:18
181,Egvekinot,RU,66.3167,-179.1667,18.57,86,100,9.91,overcast clouds,2021-10-09 15:26:11
182,Portland,US,45.5234,-122.6762,50.9,89,75,3.0,broken clouds,2021-10-09 15:26:01
183,Northam,GB,51.0333,-4.2167,64.72,82,100,2.68,overcast clouds,2021-10-09 15:28:19
184,Boyolangu,ID,-8.1181,111.8935,75.02,91,74,4.92,broken clouds,2021-10-09 15:26:13
185,Luwuk,ID,-0.9516,122.7875,78.01,80,100,3.71,overcast clouds,2021-10-09 15:28:19
186,Itoman,JP,26.1247,127.6694,82.42,78,20,11.5,few clouds,2021-10-09 15:28:20
187,Kalmunai,LK,7.4167,81.8167,83.25,71,100,2.15,light rain,2021-10-09 15:28:20
188,Nanortalik,GL,60.1432,-45.2371,38.68,76,21,5.03,few clouds,2021-10-09 15:24:32
189,Jinchang,CN,38.4953,102.1739,42.4,26,33,3.87,scattered clouds,2021-10-09 15:28:21
190,Te Anau,NZ,-45.4167,167.7167,40.28,92,19,0.67,few clouds,2021-10-09 15:23:40
191,Bayir,TR,37.2687,28.2167,76.03,51,0,5.61,clear sky,2021-10-09 15:28:22
192,College,US,64.8569,-147.8028,35.55,91,90,0.0,light snow,2021-10-09 15:25:34
193,Abay,KZ,49.6311,72.8539,32.38,56,12,1.77,few clouds,2021-10-09 15:28:23
194,Banjarmasin,ID,-3.3244,114.591,78.94,86,81,3.02,broken clouds,2021-10-09 15:28:23
195,Pontes E Lacerda,BR,-15.2261,-59.3353,99.34,31,24,6.44,few clouds,2021-10-09 15:28:24
196,Cidreira,BR,-30.1811,-50.2056,63.41,84,100,19.91,overcast clouds,2021-10-09 15:24:44
197,Provideniya,RU,64.3833,-173.3,29.23,83,99,5.79,overcast clouds,2021-10-09 15:24:20
198,Barrow,US,71.2906,-156.7887,30.22,69,90,11.5,overcast clouds,2021-10-09 15:20:02
199,Norman Wells,CA,65.282,-126.8329,23.04,93,75,4.61,broken clouds,2021-10-09 15:24:13
200,Dingle,PH,10.9995,122.6711,74.34,95,96,8.9,moderate rain,2021-10-09 15:26:11
201,Prince Rupert,CA,54.3161,-130.3201,47.89,89,90,5.75,light rain,2021-10-09 15:24:03
202,Georgetown,MY,5.4112,100.3354,82.35,87,20,3.44,few clouds,2021-10-09 15:20:32
203,Mae Hong Son,TH,19.3003,97.9685,75.18,95,88,1.59,overcast clouds,2021-10-09 15:28:25
204,Avera,US,33.194,-82.5271,74.71,80,34,10.63,scattered clouds,2021-10-09 15:23:53
205,Dikson,RU,73.5069,80.5464,30.09,64,100,19.04,light snow,2021-10-09 15:25:39
206,Ntchisi,MW,-13.5278,33.9149,77.27,26,11,9.55,few clouds,2021-10-09 15:28:26
207,Gari,RU,59.4307,62.3497,37.76,69,95,7.81,overcast clouds,2021-10-09 15:28:26
208,Katsuura,JP,35.1333,140.3,72.19,84,41,8.41,scattered clouds,2021-10-09 15:24:50
209,Hluk,CZ,48.9881,17.5267,58.32,38,0,5.19,clear sky,2021-10-09 15:28:26
210,Buala,SB,-8.145,159.5921,79.45,81,100,3.0,overcast clouds,2021-10-09 15:28:27
211,Okahandja,NA,-21.9833,16.9167,91.71,3,0,15.86,clear sky,2021-10-09 15:28:27
212,Yambio,SS,4.5721,28.3955,83.89,66,72,3.51,broken clouds,2021-10-09 15:28:28
213,Belaya Gora,RU,68.5333,146.4167,12.45,88,56,4.65,broken clouds,2021-10-09 15:25:45
214,Luderitz,NA,-26.6481,15.1594,72.9,47,3,28.92,clear sky,2021-10-09 15:25:20
215,Stamford,US,41.0534,-73.5387,69.53,78,75,7.0,broken clouds,2021-10-09 15:27:11
216,Bac Lieu,VN,9.285,105.7244,78.8,89,71,9.66,broken clouds,2021-10-09 15:28:28
217,Namibe,AO,-15.1961,12.1522,72.23,68,40,13.8,scattered clouds,2021-10-09 15:28:28
218,Mar Del Plata,AR,-38.0023,-57.5575,60.82,67,0,11.99,clear sky,2021-10-09 15:23:57
219,Radenci,SI,46.642,16.0378,57.9,53,18,8.23,few clouds,2021-10-09 15:28:29
220,Bardiyah,LY,31.7561,25.0865,78.33,51,0,10.04,clear sky,2021-10-09 15:24:30
221,Ler,SS,8.3018,30.1418,77.22,88,95,8.61,heavy intensity rain,2021-10-09 15:28:29
222,Comodoro Rivadavia,AR,-45.8667,-67.5,58.86,51,0,10.36,clear sky,2021-10-09 15:24:48
223,Jodhpur,IN,26.2867,73.03,90.0,34,0,8.46,clear sky,2021-10-09 15:25:00
224,Kahului,US,20.8947,-156.47,75.85,89,75,10.36,light rain,2021-10-09 15:24:04
225,Pochutla,MX,15.7432,-96.4661,85.82,67,100,1.19,overcast clouds,2021-10-09 15:26:04
226,Hamilton,US,39.1834,-84.5333,76.41,79,1,1.01,clear sky,2021-10-09 15:28:30
227,Berlevag,NO,70.8578,29.0864,36.99,96,100,7.83,light rain,2021-10-09 15:26:26
228,Bengkulu,ID,-3.8004,102.2655,78.46,90,40,6.49,scattered clouds,2021-10-09 15:23:54
229,Pombas,CV,17.1503,-25.0201,83.98,76,17,12.53,few clouds,2021-10-09 15:28:31
230,Airai,TL,-8.9266,125.4092,59.63,78,50,1.95,scattered clouds,2021-10-09 15:28:31
231,Mandan,US,46.8267,-100.8896,55.38,94,90,18.41,heavy intensity rain,2021-10-09 15:28:32
232,Sechura,PE,-5.5569,-80.8222,72.39,66,41,6.49,scattered clouds,2021-10-09 15:28:33
233,Severo-Kurilsk,RU,50.6789,156.125,43.39,80,45,11.7,scattered clouds,2021-10-09 15:25:07
234,Verkhnevilyuysk,RU,63.4453,120.3167,36.27,78,100,12.41,overcast clouds,2021-10-09 15:28:34
235,Grindavik,IS,63.8424,-22.4338,48.15,87,90,14.97,overcast clouds,2021-10-09 15:24:44
236,Olinda,BR,-8.0089,-34.8553,83.93,65,40,14.97,scattered clouds,2021-10-09 15:28:36
237,Alekseyevsk,RU,57.8406,108.3492,37.65,97,100,14.74,light rain,2021-10-09 15:28:36
238,Luau,AO,-10.7073,22.2247,96.66,14,19,3.0,few clouds,2021-10-09 15:28:37
239,Shirokiy,RU,49.758,129.523,47.01,96,100,12.62,light rain,2021-10-09 15:28:37
240,Bayanday,RU,53.0661,105.5139,33.42,79,96,3.53,overcast clouds,2021-10-09 15:28:37
241,Broken Hill,AU,-31.95,141.4333,58.71,82,90,25.32,moderate rain,2021-10-09 15:27:47
242,Sisimiut,GL,66.9395,-53.6735,32.36,68,100,8.79,overcast clouds,2021-10-09 15:28:38
243,Chapais,CA,49.7834,-74.8492,60.58,63,60,9.55,broken clouds,2021-10-09 15:28:39
244,Mnogovershinnyy,RU,53.9353,139.9242,35.73,57,100,3.22,overcast clouds,2021-10-09 15:28:39
245,Jambi,ID,-1.6,103.6167,79.23,83,99,1.66,overcast clouds,2021-10-09 15:28:40
246,Biak,ID,-0.9131,122.8766,77.29,77,100,4.52,light rain,2021-10-09 15:25:49
247,Dudinka,RU,69.4058,86.1778,18.43,85,96,16.64,overcast clouds,2021-10-09 15:23:56
248,Jacqueville,CI,5.2052,-4.4146,84.11,82,31,13.62,scattered clouds,2021-10-09 15:28:40
249,Beringovskiy,RU,63.05,179.3167,30.38,90,100,8.05,overcast clouds,2021-10-09 15:25:28
250,Half Moon Bay,US,37.4636,-122.4286,58.82,81,40,0.0,scattered clouds,2021-10-09 15:28:42
251,Ventspils,LV,57.3894,21.5606,55.33,82,0,9.22,clear sky,2021-10-09 15:28:42
252,Fayaoue,NC,-20.65,166.5333,73.09,69,14,16.98,few clouds,2021-10-09 15:28:43
253,Kousseri,CM,12.0769,15.0306,102.16,15,0,4.61,clear sky,2021-10-09 15:28:43
254,Kimbe,PG,-5.5502,150.1429,75.34,95,94,2.8,overcast clouds,2021-10-09 15:28:44
255,Aswan,EG,24.0934,32.907,99.32,14,1,11.97,clear sky,2021-10-09 15:28:44
256,Tautira,PF,-17.7333,-149.15,73.42,72,32,1.39,scattered clouds,2021-10-09 15:28:44
257,Pilar,BR,-9.5972,-35.9567,85.93,53,100,10.85,overcast clouds,2021-10-09 15:28:45
258,Qunduz,AF,36.729,68.857,56.66,35,2,5.91,clear sky,2021-10-09 15:28:45
259,Tuktoyaktuk,CA,69.4541,-133.0374,28.4,93,75,9.22,broken clouds,2021-10-09 15:23:51
260,Road Town,VG,18.4167,-64.6167,87.89,62,20,11.5,few clouds,2021-10-09 15:27:25
261,Danshui,CN,22.7984,114.4672,79.02,93,100,10.36,moderate rain,2021-10-09 15:28:47
262,Kondinskoye,RU,59.6481,67.41,38.88,69,100,8.66,overcast clouds,2021-10-09 15:28:47
263,Mehamn,NO,71.0357,27.8492,35.82,97,100,5.08,light rain,2021-10-09 15:25:09
264,Boa Vista,BR,2.8197,-60.6733,84.18,65,40,3.44,scattered clouds,2021-10-09 15:25:07
265,Boshnyakovo,RU,49.6333,142.1667,45.18,83,71,11.7,broken clouds,2021-10-09 15:28:48
266,Tichilesti,RO,45.1167,27.9,54.37,39,100,10.85,overcast clouds,2021-10-09 15:28:49
267,Oratorio,GT,14.2281,-90.1758,76.69,69,99,1.5,overcast clouds,2021-10-09 15:28:49
268,Ust-Tsilma,RU,65.441,52.1498,32.43,77,82,4.23,broken clouds,2021-10-09 15:26:40
269,Honningsvag,NO,70.9821,25.9704,37.76,96,100,6.04,light rain,2021-10-09 15:28:49
270,Champerico,GT,14.3,-91.9167,89.35,77,97,7.81,overcast clouds,2021-10-09 15:23:39
271,Chunskiy,RU,56.0815,99.6342,41.13,73,97,10.42,overcast clouds,2021-10-09 15:28:50
272,Matara,LK,5.9485,80.5353,79.45,86,97,9.62,overcast clouds,2021-10-09 15:25:32
273,Pevek,RU,69.7008,170.3133,23.45,92,99,2.13,overcast clouds,2021-10-09 15:28:51
274,Kudat,MY,6.8837,116.8477,82.33,89,20,3.44,moderate rain,2021-10-09 15:28:51
275,Staryy Nadym,RU,65.6118,72.6842,31.59,78,100,20.49,light snow,2021-10-09 15:28:51
276,Vostok,RU,46.4856,135.8833,43.86,66,99,6.08,moderate rain,2021-10-09 15:26:31
277,Lobva,RU,59.1854,60.5185,39.58,67,97,5.93,overcast clouds,2021-10-09 15:28:52
278,Guerrero Negro,MX,27.9769,-114.0611,71.58,67,0,19.22,clear sky,2021-10-09 15:25:51
279,Lompoc,US,34.6391,-120.4579,62.08,79,1,17.0,clear sky,2021-10-09 15:26:25
280,Okhotsk,RU,59.3833,143.3,26.04,81,34,8.34,scattered clouds,2021-10-09 15:28:52
281,Zyryanka,RU,65.75,150.85,15.53,81,16,6.13,few clouds,2021-10-09 15:28:53
282,Vila Velha,BR,-20.3297,-40.2925,71.55,68,75,4.61,broken clouds,2021-10-09 15:28:13
283,Sonari,IN,27.0667,95.0333,77.34,92,0,2.3,clear sky,2021-10-09 15:28:53
284,Baghdogra,IN,26.7,88.3167,78.48,79,0,4.68,clear sky,2021-10-09 15:28:54
285,Yumen,CN,40.2833,97.2,39.56,17,0,5.17,clear sky,2021-10-09 15:24:01
286,Mwinilunga,ZM,-11.7358,24.4293,92.01,15,16,7.56,few clouds,2021-10-09 15:28:55
287,Bad Gandersheim,DE,51.8667,10.0333,60.48,60,7,6.24,clear sky,2021-10-09 15:28:55
288,Hofn,IS,64.2539,-15.2082,47.68,86,100,2.24,overcast clouds,2021-10-09 15:28:56
289,Mana,GF,5.6592,-53.7767,88.16,60,100,7.67,overcast clouds,2021-10-09 15:28:56
290,Ulladulla,AU,-35.35,150.4667,62.1,87,49,6.71,scattered clouds,2021-10-09 15:28:56
291,Manhattan,US,40.7834,-73.9662,69.15,76,90,8.05,overcast clouds,2021-10-09 15:28:57
292,Esperance,AU,-33.8667,121.9,48.04,63,100,7.56,overcast clouds,2021-10-09 15:25:34
293,Meridian,US,43.6121,-116.3915,50.09,65,1,1.01,clear sky,2021-10-09 15:28:57
294,Kropotkin,RU,45.4375,40.5756,54.43,48,46,18.28,scattered clouds,2021-10-09 15:26:41
295,Kanye,BW,-24.9667,25.3327,83.88,8,0,13.49,clear sky,2021-10-09 15:28:58
296,Araouane,ML,18.9048,-3.5265,102.81,6,79,6.71,broken clouds,2021-10-09 15:28:58
297,Los Llanos De Aridane,ES,28.6585,-17.9182,73.15,77,40,13.8,scattered clouds,2021-10-09 15:28:59
298,Tuburan,PH,6.6439,122.2736,78.89,76,100,4.21,overcast clouds,2021-10-09 15:29:00
299,Pangoa,PE,-12.1167,-73.0,75.15,93,100,1.66,overcast clouds,2021-10-09 15:29:01
300,Zhigansk,RU,66.7697,123.3711,34.32,99,100,17.94,light rain,2021-10-09 15:25:19
301,Aksu,CN,41.1231,80.2644,50.25,33,95,7.09,overcast clouds,2021-10-09 15:29:01
302,Huaihua,CN,27.5494,109.9592,63.54,97,100,4.05,moderate rain,2021-10-09 15:29:02
303,Berdigestyakh,RU,62.0989,126.6992,31.12,92,77,7.74,broken clouds,2021-10-09 15:29:03
304,Oranjemund,NA,-28.55,16.4333,63.23,67,18,22.35,few clouds,2021-10-09 15:29:03
305,Lac Du Bonnet,CA,50.2536,-96.0612,56.14,82,100,7.45,overcast clouds,2021-10-09 15:29:04
306,Souillac,MU,-20.5167,57.5167,73.78,73,40,14.97,scattered clouds,2021-10-09 15:25:17
307,Garowe,SO,8.4054,48.4845,87.71,39,98,12.95,overcast clouds,2021-10-09 15:29:04
308,Honiara,SB,-9.4333,159.95,77.47,89,99,0.83,light rain,2021-10-09 15:25:48
309,Saint Anthony,US,45.0205,-93.218,71.53,82,1,1.01,clear sky,2021-10-09 15:24:53
310,Acapulco,MX,16.8634,-99.8901,82.22,83,75,4.61,broken clouds,2021-10-09 15:29:06
311,Salinopolis,BR,-0.6136,-47.3561,87.26,64,70,10.92,broken clouds,2021-10-09 15:29:06
312,Pedernales,DO,18.0384,-71.744,85.15,64,0,4.68,clear sky,2021-10-09 15:29:07
313,Camacupa,AO,-12.0167,17.4833,94.3,12,71,4.85,broken clouds,2021-10-09 15:29:07
314,Pisco,PE,-13.7,-76.2167,64.45,82,90,6.91,overcast clouds,2021-10-09 15:24:45
315,Arlit,NE,18.7369,7.3853,98.31,8,6,5.32,clear sky,2021-10-09 15:29:09
316,Leningradskiy,RU,69.3833,178.4167,15.58,95,100,4.07,overcast clouds,2021-10-09 15:26:47
317,San Pedro,PH,14.35,121.0167,81.36,88,20,4.61,few clouds,2021-10-09 15:29:09
318,Durban,ZA,-29.8579,31.0292,70.72,78,15,8.99,few clouds,2021-10-09 15:29:10
319,Hami,CN,42.8,93.45,46.31,33,0,1.32,clear sky,2021-10-09 15:29:10
320,Pangnirtung,CA,66.1451,-65.7125,33.8,100,90,0.0,fog,2021-10-09 15:29:10
321,Marienburg,PL,54.0359,19.0266,57.88,43,100,4.03,overcast clouds,2021-10-09 15:29:11
322,Murree,PK,33.9073,73.393,60.24,54,0,4.97,clear sky,2021-10-09 15:29:11
323,Mackay,AU,-21.15,149.2,73.38,78,40,9.22,scattered clouds,2021-10-09 15:29:12
324,Bathsheba,BB,13.2167,-59.5167,86.61,70,75,16.11,broken clouds,2021-10-09 15:24:50
325,Ust-Kuyga,RU,70.0167,135.6,18.21,90,100,5.48,overcast clouds,2021-10-09 15:29:12
326,Vizinga,RU,61.0749,50.1031,39.15,95,100,2.73,light rain,2021-10-09 15:29:12
327,Taltal,CL,-25.4,-70.4833,63.43,56,0,6.13,clear sky,2021-10-09 15:29:13
328,Sao Joao Da Barra,BR,-21.6403,-41.0511,71.69,73,100,7.94,overcast clouds,2021-10-09 15:24:30
329,Taksimo,RU,56.3444,114.8794,30.97,78,12,3.69,few clouds,2021-10-09 15:29:13
330,San Quintin,MX,30.4833,-115.95,65.8,76,5,14.65,clear sky,2021-10-09 15:29:14
331,Inhambane,MZ,-23.865,35.3833,75.0,67,0,15.52,clear sky,2021-10-09 15:29:14
332,Pathein,MM,16.7833,94.7333,78.3,90,100,3.76,overcast clouds,2021-10-09 15:29:14
333,Usukhchay,RU,41.4225,47.9132,45.41,90,76,1.34,broken clouds,2021-10-09 15:29:15
334,Ribeira Grande,PT,38.5167,-28.7,73.8,73,40,17.27,scattered clouds,2021-10-09 15:24:19
335,Moussoro,TD,13.6408,16.4901,101.98,11,98,11.21,overcast clouds,2021-10-09 15:29:15
336,Talas,TR,38.6908,35.5538,70.47,21,0,4.61,clear sky,2021-10-09 15:29:16
337,Cockburn Town,TC,21.4612,-71.1419,82.74,75,99,13.18,overcast clouds,2021-10-09 15:21:24
338,Yulara,AU,-25.2406,130.9889,73.24,43,90,12.66,overcast clouds,2021-10-09 15:26:38
339,Mareeba,AU,-17.0,145.4333,70.52,92,70,5.26,broken clouds,2021-10-09 15:29:16
340,Uchiza,PE,-8.4592,-76.4633,83.28,64,84,3.29,broken clouds,2021-10-09 15:26:13
341,Tornabe,HN,15.75,-87.55,84.45,83,40,2.3,scattered clouds,2021-10-09 15:29:17
342,Sergeyevka,KZ,53.88,67.4158,43.99,71,23,7.05,few clouds,2021-10-09 15:29:17
343,Juba,SS,4.8517,31.5825,87.84,49,39,5.32,scattered clouds,2021-10-09 15:29:17
344,Usinsk,RU,65.9939,57.5281,30.4,71,19,11.18,few clouds,2021-10-09 15:29:18
345,Tambacounda,SN,13.7539,-13.7586,95.05,55,20,6.91,few clouds,2021-10-09 15:29:18
346,Sitka,US,57.0531,-135.33,44.98,84,99,12.55,moderate rain,2021-10-09 15:24:35
347,Hobyo,SO,5.3505,48.5268,79.2,80,46,14.74,scattered clouds,2021-10-09 15:29:19
348,Khilok,RU,51.3674,110.4676,28.74,91,11,6.02,few clouds,2021-10-09 15:29:19
349,Teya,RU,60.3778,92.6267,35.51,85,98,14.12,overcast clouds,2021-10-09 15:29:19
350,Sayyan,YE,15.1718,44.3244,69.64,35,99,17.47,overcast clouds,2021-10-09 15:29:19
351,Cururupu,BR,-1.8283,-44.8683,88.45,56,79,7.76,broken clouds,2021-10-09 15:29:20
352,Camapua,BR,-19.5314,-54.0439,99.16,28,9,11.52,clear sky,2021-10-09 15:29:20
353,Marystown,CA,47.1666,-55.1483,48.85,100,28,10.0,scattered clouds,2021-10-09 15:29:22
354,Padang,ID,-0.9492,100.3543,77.05,89,44,2.26,scattered clouds,2021-10-09 15:29:22
355,Fernandez,AR,-27.9204,-63.8935,64.11,48,100,11.03,overcast clouds,2021-10-09 15:29:23
356,Yugorsk,RU,61.3133,63.3319,36.19,68,99,10.2,overcast clouds,2021-10-09 15:29:23
357,San Cristobal,VE,7.7669,-72.225,77.18,43,21,3.11,few clouds,2021-10-09 15:26:43
358,Haines Junction,CA,60.7522,-137.5108,32.79,95,83,2.91,light snow,2021-10-09 15:26:45
359,Strezhevoy,RU,60.7333,77.5889,37.38,65,88,15.61,overcast clouds,2021-10-09 15:29:24
360,Yangambi,CD,0.8102,24.4336,83.75,62,100,4.32,light rain,2021-10-09 15:29:24
361,Montepuez,MZ,-13.1256,38.9997,85.33,28,1,4.32,clear sky,2021-10-09 15:29:24
362,Hartford,US,41.7668,-72.7662,65.07,79,90,1.01,overcast clouds,2021-10-09 15:25:06
363,Payo,ID,-3.7508,103.6372,78.06,80,94,2.73,overcast clouds,2021-10-09 15:29:25
364,Newport,GB,51.5877,-2.9984,65.68,80,100,1.19,overcast clouds,2021-10-09 15:29:25
365,Yar-Sale,RU,66.8333,70.8333,29.08,70,83,15.57,broken clouds,2021-10-09 15:26:27
366,Nelson Bay,AU,-32.7167,152.15,68.05,68,1,13.89,clear sky,2021-10-09 15:29:26
367,Mulchen,CL,-37.7167,-72.2333,62.46,37,0,2.08,clear sky,2021-10-09 15:29:26
368,Mbandaka,CD,0.0487,18.2603,86.47,59,98,1.63,overcast clouds,2021-10-09 15:29:28
369,Lebu,CL,-37.6167,-73.65,57.88,72,13,10.63,few clouds,2021-10-09 15:23:57
370,Eskilstuna,SE,59.3666,16.5077,59.2,85,99,5.99,overcast clouds,2021-10-09 15:29:29
371,Cabedelo,BR,-6.9811,-34.8339,86.67,63,68,14.32,broken clouds,2021-10-09 15:29:30
372,Hasaki,JP,35.7333,140.8333,68.4,86,37,8.57,scattered clouds,2021-10-09 15:21:15
373,Hailar,CN,49.2,119.7,35.55,98,100,17.47,overcast clouds,2021-10-09 15:29:31
374,Tabou,CI,4.423,-7.3528,80.76,80,97,8.5,light rain,2021-10-09 15:29:32
375,Aquiraz,BR,-3.9014,-38.3911,89.22,60,72,15.43,broken clouds,2021-10-09 15:29:32
376,Yarim,YE,14.298,44.3779,61.16,63,75,5.23,broken clouds,2021-10-09 15:29:32
377,Flinders,AU,-34.5833,150.8552,64.8,77,84,1.01,light rain,2021-10-09 15:25:04
378,Port Macquarie,AU,-31.4333,152.9167,58.96,93,12,11.3,few clouds,2021-10-09 15:29:33
379,Zlobin,HR,45.2924,14.6541,50.32,56,20,4.61,few clouds,2021-10-09 15:29:34
380,Saint-Joseph,RE,-21.3667,55.6167,70.21,80,57,13.38,light rain,2021-10-09 15:26:24
381,Nemuro,JP,43.3236,145.575,55.99,76,41,13.06,scattered clouds,2021-10-09 15:29:35
382,Cham,DE,49.245,12.6825,56.21,61,0,10.04,clear sky,2021-10-09 15:29:35
383,Llano Largo,PA,7.9,-80.4333,83.05,78,92,3.53,overcast clouds,2021-10-09 15:29:36
384,Revelstoke,CA,50.9832,-118.2023,37.42,87,90,2.3,overcast clouds,2021-10-09 15:28:16
385,Darab,IR,28.7519,54.5444,82.0,9,0,4.29,clear sky,2021-10-09 15:29:36
386,Sao Filipe,CV,14.8961,-24.4956,81.05,77,18,8.12,few clouds,2021-10-09 15:24:39
387,Flin Flon,CA,54.7682,-101.865,46.24,87,75,6.91,smoke,2021-10-09 15:26:16
388,Dzerzhinsk,RU,56.2389,43.4631,48.02,53,0,4.47,clear sky,2021-10-09 15:29:37
389,Monte Aprazivel,BR,-20.7725,-49.7142,90.25,34,6,3.91,clear sky,2021-10-09 15:27:11
390,Igarka,RU,67.4667,86.5833,22.8,82,100,22.97,overcast clouds,2021-10-09 15:29:39
391,Charters Towers,AU,-20.1,146.2667,68.16,82,6,11.07,clear sky,2021-10-09 15:29:40
392,Wenling,CN,28.3669,121.36,75.9,89,83,7.11,broken clouds,2021-10-09 15:29:40
393,Panaba,MX,21.2833,-88.2667,86.05,64,94,6.04,overcast clouds,2021-10-09 15:29:41
394,Shingu,JP,33.7333,135.9833,71.51,89,36,8.61,scattered clouds,2021-10-09 15:29:41
395,Green River,US,41.5286,-109.4662,45.99,70,72,5.99,broken clouds,2021-10-09 15:29:41
396,Teeli,RU,51.0333,90.2333,34.41,56,1,3.27,clear sky,2021-10-09 15:29:42
397,Escanaba,US,45.7453,-87.0646,65.25,96,90,5.75,overcast clouds,2021-10-09 15:25:13
398,Fort Nelson,CA,58.8053,-122.7002,38.79,70,75,0.0,broken clouds,2021-10-09 15:29:42
399,General Pico,AR,-35.6566,-63.7568,67.62,42,0,8.57,clear sky,2021-10-09 15:29:42
400,Lazurne,UA,46.084,32.5295,49.01,58,100,17.54,overcast clouds,2021-10-09 15:29:43
401,Nizhniy Odes,RU,63.6445,54.856,32.27,75,98,4.76,overcast clouds,2021-10-09 15:29:44
402,Daru,PG,-9.0763,143.2092,79.45,86,34,18.07,scattered clouds,2021-10-09 15:29:45
403,Klaksvik,FO,62.2266,-6.589,50.92,82,51,13.33,broken clouds,2021-10-09 15:25:39
404,Kidal,ML,18.4411,1.4078,99.9,5,52,15.84,broken clouds,2021-10-09 15:29:46
405,Altay,CN,47.8667,88.1167,32.79,51,0,7.92,clear sky,2021-10-09 15:29:46
406,Hauterive,FR,46.0901,3.4459,60.1,61,27,3.76,scattered clouds,2021-10-09 15:25:31
407,Garissa,KE,-0.4536,39.6401,90.18,39,64,16.87,broken clouds,2021-10-09 15:29:48
408,Luba,GQ,3.4568,8.5547,75.09,89,100,10.63,light rain,2021-10-09 15:29:48
409,Chuy,UY,-33.6971,-53.4616,64.8,61,35,12.33,scattered clouds,2021-10-09 15:24:36
410,Bad Hofgastein,AT,47.1667,13.1,57.61,91,4,4.25,clear sky,2021-10-09 15:29:50
411,Muzhi,RU,65.3667,64.6667,31.53,67,4,16.84,clear sky,2021-10-09 15:26:08
412,Hervey Bay,AU,-25.2986,152.8535,71.02,76,0,9.8,clear sky,2021-10-09 15:26:00
413,Peniche,PT,39.3558,-9.3811,79.75,78,98,10.8,overcast clouds,2021-10-09 15:29:50
414,Arboletes,CO,8.8505,-76.4269,83.08,76,99,5.59,overcast clouds,2021-10-09 15:29:51
415,Mandurah,AU,-32.55,115.7,54.16,70,0,9.69,clear sky,2021-10-09 15:29:13
416,Mahibadhoo,MV,3.7833,72.9667,83.59,78,77,12.01,light rain,2021-10-09 15:29:52
417,Margate,GB,51.3813,1.3862,63.97,76,66,1.99,broken clouds,2021-10-09 15:29:52
418,Benghazi,LY,32.1167,20.0667,79.47,49,0,6.44,clear sky,2021-10-09 15:24:15
419,Karera,IN,25.4667,78.15,80.94,54,3,7.56,clear sky,2021-10-09 15:29:53
420,Terra Roxa,BR,-23.8557,-50.0314,69.49,66,92,7.31,light rain,2021-10-09 15:29:53
421,Banjar,ID,-8.19,114.9675,78.66,89,51,7.83,broken clouds,2021-10-09 15:25:58
422,Tiznit,MA,29.5833,-9.5,82.11,32,96,8.08,overcast clouds,2021-10-09 15:25:23
423,Richards Bay,ZA,-28.783,32.0377,69.78,82,42,19.89,light rain,2021-10-09 15:29:54
424,Itumbiara,BR,-18.4192,-49.2153,98.01,27,20,5.3,few clouds,2021-10-09 15:29:54
425,Prince George,CA,53.9166,-122.753,42.24,92,90,16.11,overcast clouds,2021-10-09 15:29:54
426,Mercedes,AR,-34.6515,-59.4307,69.78,46,5,9.28,clear sky,2021-10-09 15:29:55
427,Carutapera,BR,-1.195,-46.02,86.95,63,89,10.38,overcast clouds,2021-10-09 15:25:11
428,Buta,CD,2.7858,24.73,88.77,53,100,2.04,overcast clouds,2021-10-09 15:29:55
429,Plettenberg Bay,ZA,-34.0527,23.3716,62.22,65,41,10.96,scattered clouds,2021-10-09 15:29:56
430,Plaster Rock,CA,46.9065,-67.39,53.56,45,10,3.44,clear sky,2021-10-09 15:29:56
431,Vallenar,CL,-28.5708,-70.7581,67.33,30,0,6.69,clear sky,2021-10-09 15:29:57
432,Kemijarvi,FI,66.7131,27.4306,44.6,96,100,4.29,overcast clouds,2021-10-09 15:29:57
433,Nuevo Progreso,MX,23.1667,-97.95,83.53,74,0,1.01,clear sky,2021-10-09 15:29:58
434,San Joaquin,US,37.9333,-121.3011,55.53,83,23,2.1,few clouds,2021-10-09 15:29:58
435,Manggar,ID,-2.8833,108.2667,81.68,80,6,8.9,clear sky,2021-10-09 15:29:59
436,Monjas,GT,14.5,-89.8667,77.38,74,100,5.3,overcast clouds,2021-10-09 15:29:59
437,Huarmey,PE,-10.0681,-78.1522,67.6,80,64,9.04,broken clouds,2021-10-09 15:29:59
438,Omemee,CA,44.299,-78.5599,64.51,97,90,11.5,overcast clouds,2021-10-09 15:30:00
439,Sioux Lookout,CA,50.1001,-91.917,59.38,94,90,4.61,mist,2021-10-09 15:24:31
440,Lyngdal,NO,58.1376,7.07,57.99,83,59,6.8,broken clouds,2021-10-09 15:30:00
441,Coronado,US,32.6859,-117.1831,64.08,88,75,0.0,broken clouds,2021-10-09 15:30:01
442,Hovd,MN,48.0056,91.6419,34.68,40,0,0.69,clear sky,2021-10-09 15:25:33
443,Teknaf,BD,20.8624,92.3058,80.78,84,39,1.99,scattered clouds,2021-10-09 15:30:04
444,Derzhavinsk,KZ,51.1,66.3167,46.62,42,0,6.13,clear sky,2021-10-09 15:30:05
445,Faanui,PF,-16.4833,-151.75,77.54,72,13,6.15,few clouds,2021-10-09 15:23:57
446,Ilulissat,GL,69.2167,-51.1,28.42,37,75,11.5,broken clouds,2021-10-09 15:24:00
447,Palana,RU,59.1167,159.9667,30.72,75,20,6.15,few clouds,2021-10-09 15:30:07
448,Ahipara,NZ,-35.1667,173.1667,56.05,67,90,12.28,overcast clouds,2021-10-09 15:26:34
449,Port Hedland,AU,-20.3167,118.5667,71.65,78,0,8.05,clear sky,2021-10-09 15:19:19
450,Marang,MY,5.2056,103.2059,82.31,79,98,2.48,overcast clouds,2021-10-09 15:30:08
451,Baruun-Urt,MN,46.6806,113.2792,31.62,81,71,14.5,broken clouds,2021-10-09 15:25:34
452,Nouakchott,MR,18.0858,-15.9785,109.33,27,95,5.66,overcast clouds,2021-10-09 15:30:10
453,Kapoeta,SS,4.7717,33.5903,91.09,34,58,6.71,broken clouds,2021-10-09 15:24:28
454,Vanavara,RU,60.34,102.2797,37.27,96,100,15.88,light rain,2021-10-09 15:30:11
455,Vao,NC,-22.6667,167.4833,69.62,60,100,15.5,overcast clouds,2021-10-09 15:26:55
456,Ligayan,PH,4.6533,119.4706,83.86,72,100,5.03,moderate rain,2021-10-09 15:30:11
457,Bonnyville,CA,54.2668,-110.735,34.92,31,99,7.16,overcast clouds,2021-10-09 15:30:12
458,Alghero,IT,40.5589,8.3181,73.49,49,20,13.8,few clouds,2021-10-09 15:30:13
459,Codrington,AU,-38.2667,141.9667,45.43,78,98,7.14,overcast clouds,2021-10-09 15:25:33
460,Port Blair,IN,11.6667,92.75,79.65,86,100,16.11,overcast clouds,2021-10-09 15:25:57
461,Vilhena,BR,-12.7406,-60.1458,88.02,58,0,10.36,clear sky,2021-10-09 15:30:13
462,Santa Maria Del Oro,MX,25.9333,-105.3667,72.95,25,1,2.84,clear sky,2021-10-09 15:30:14
463,Kurilsk,RU,45.2333,147.8833,51.8,70,31,6.55,scattered clouds,2021-10-09 15:30:14
464,Oussouye,SN,12.485,-16.5469,91.58,63,99,9.6,overcast clouds,2021-10-09 15:30:14
465,Rio Cuarto,AR,-33.1307,-64.3499,69.57,35,0,13.8,clear sky,2021-10-09 15:30:15
466,Tamale,GH,9.4008,-0.8393,91.83,51,100,3.06,overcast clouds,2021-10-09 15:30:15
467,Caravelas,BR,-17.7125,-39.2481,77.99,64,96,8.88,overcast clouds,2021-10-09 15:30:15
468,Tigil,RU,57.8,158.6667,32.22,96,100,4.03,overcast clouds,2021-10-09 15:30:16
469,Matadi,CD,-5.8167,13.45,92.28,47,70,4.88,broken clouds,2021-10-09 15:30:16
470,Barra Do Garcas,BR,-15.89,-52.2567,86.58,62,0,0.0,clear sky,2021-10-09 15:30:13
471,Hommersak,NO,58.9317,5.8511,59.09,82,90,11.5,overcast clouds,2021-10-09 15:30:17
472,Valleyview,CA,55.0667,-117.2859,37.44,81,92,14.97,overcast clouds,2021-10-09 15:30:17
473,Belogorsk,RU,50.9158,128.4611,47.43,95,100,10.11,moderate rain,2021-10-09 15:30:18
474,Puro,PH,12.4841,123.3827,79.48,86,100,13.56,overcast clouds,2021-10-09 15:30:18
475,Tiarei,PF,-17.5333,-149.3333,73.42,71,8,3.15,clear sky,2021-10-09 15:30:18
476,Nachingwea,TZ,-10.3833,38.7667,80.44,44,50,11.65,scattered clouds,2021-10-09 15:30:19
477,Homun,MX,20.7333,-89.2833,85.95,53,62,2.98,broken clouds,2021-10-09 15:30:19
478,Weihe,CN,32.9952,105.3247,47.48,93,100,8.1,overcast clouds,2021-10-09 15:30:19
479,Puerto Escondido,MX,15.85,-97.0667,86.83,66,1,10.36,clear sky,2021-10-09 15:26:19
480,Zhicheng,CN,30.2956,111.5047,65.25,92,100,2.84,light rain,2021-10-09 15:30:20
481,Gat,IL,31.61,34.7642,80.4,60,0,13.71,clear sky,2021-10-09 15:29:00
482,Chudovo,RU,59.1167,31.6833,47.48,80,96,5.93,overcast clouds,2021-10-09 15:30:20
483,Inongo,CD,-1.95,18.2667,82.53,65,41,4.79,scattered clouds,2021-10-09 15:30:21
484,Nouadhibou,MR,20.931,-17.0347,75.16,67,90,19.73,overcast clouds,2021-10-09 15:30:21
485,Ahuimanu,US,21.4447,-157.8378,76.75,71,40,21.85,scattered clouds,2021-10-09 15:26:42
486,Alta Floresta,BR,-9.8756,-56.0861,91.22,58,40,8.05,scattered clouds,2021-10-09 15:30:23
487,Rio Grande,BR,-32.035,-52.0986,66.31,69,85,18.66,overcast clouds,2021-10-09 15:30:23
488,Nagato,JP,34.3833,131.2,76.91,85,0,13.09,clear sky,2021-10-09 15:30:23
489,Skagen,DK,57.7209,10.5839,56.08,83,74,11.32,broken clouds,2021-10-09 15:30:24
490,Houma,US,29.5958,-90.7195,82.4,77,57,4.43,broken clouds,2021-10-09 15:25:16
491,Weiz,AT,47.2167,15.6167,53.65,42,7,4.07,clear sky,2021-10-09 15:30:26
492,Bara,NG,10.3744,10.7288,91.22,43,72,4.74,broken clouds,2021-10-09 15:30:26
493,Grants,US,35.1473,-107.8514,59.23,58,90,8.05,overcast clouds,2021-10-09 15:30:26
494,Komsomolskiy,UZ,40.4272,71.7189,56.12,58,99,4.61,overcast clouds,2021-10-09 15:30:27
495,Maragogi,BR,-9.0122,-35.2225,81.73,63,98,11.1,overcast clouds,2021-10-09 15:26:36
496,Nioro,GM,13.35,-15.75,88.9,61,88,8.61,overcast clouds,2021-10-09 15:30:27
497,Miechow,PL,50.3565,20.0279,52.92,55,1,8.16,clear sky,2021-10-09 15:30:27
498,Salamiyah,SY,35.0113,37.0532,78.66,20,0,6.26,clear sky,2021-10-09 15:30:28
499,Yanam,IN,16.7333,82.2167,82.8,92,7,1.21,clear sky,2021-10-09 15:30:29
500,Pacifica,US,37.6138,-122.4869,58.64,84,40,3.0,scattered clouds,2021-10-09 15:26:15
501,Yershov,RU,51.3513,48.2766,47.61,48,5,6.02,clear sky,2021-10-09 15:30:30
502,The Valley,AI,18.217,-63.0578,87.66,58,20,17.27,few clouds,2021-10-09 15:23:40
503,Ukiah,US,39.1502,-123.2078,53.1,89,1,0.0,clear sky,2021-10-09 15:30:31
504,Kieta,PG,-6.2167,155.6333,77.94,85,61,3.98,broken clouds,2021-10-09 15:30:32
505,Beyneu,KZ,45.3167,55.2,53.74,40,0,8.14,clear sky,2021-10-09 15:24:56
506,Yamada,JP,39.4667,141.95,58.08,87,41,8.41,scattered clouds,2021-10-09 15:30:33
507,Nara,JP,34.6851,135.8049,75.49,61,1,6.02,clear sky,2021-10-09 15:30:34
508,Khovu-Aksy,RU,51.1333,93.6,27.46,74,10,6.33,clear sky,2021-10-09 15:30:34
509,La Ronge,CA,55.1001,-105.2842,43.05,75,1,5.75,smoke,2021-10-09 15:25:28
510,Lucea,JM,18.451,-78.1736,85.86,68,63,3.18,broken clouds,2021-10-09 15:30:35
511,Inta,RU,66.0317,60.1659,29.5,73,69,11.7,broken clouds,2021-10-09 15:25:49
512,Shetpe,KZ,44.1667,52.1167,49.77,36,0,3.49,clear sky,2021-10-09 15:30:35
513,Salym,RU,60.0625,71.4789,37.6,75,100,7.45,overcast clouds,2021-10-09 15:30:36
514,Tessalit,ML,20.1986,1.0114,99.75,6,22,11.77,few clouds,2021-10-09 15:30:36
515,Petawawa,CA,45.9001,-77.3328,57.78,93,90,3.0,overcast clouds,2021-10-09 15:30:36
516,Malia,GR,35.2833,25.4667,76.86,73,0,4.47,clear sky,2021-10-09 15:30:37
517,Kailua,US,21.4022,-157.7394,77.02,73,40,21.85,scattered clouds,2021-10-09 15:30:37
518,Morondava,MG,-20.2833,44.2833,77.56,77,30,6.15,scattered clouds,2021-10-09 15:30:37
519,Santa Isabel Do Rio Negro,BR,-0.4139,-65.0192,94.55,46,81,1.79,broken clouds,2021-10-09 15:30:38
520,Bangkal,PH,6.0667,121.0667,79.38,84,100,2.89,light rain,2021-10-09 15:30:38
521,Porbandar,IN,21.6422,69.6093,83.84,77,95,5.01,overcast clouds,2021-10-09 15:30:38
522,Weatherford,US,32.7593,-97.7972,79.79,66,40,1.01,scattered clouds,2021-10-09 15:29:17
523,Dakar,SN,14.6937,-17.4441,90.48,74,0,16.11,clear sky,2021-10-09 15:30:39
524,Gigmoto,PH,13.7796,124.39,80.11,91,100,13.15,overcast clouds,2021-10-09 15:30:39
525,Hare Bay,CA,48.8499,-54.0148,42.19,72,97,19.46,overcast clouds,2021-10-09 15:30:39
526,Kyzyl,RU,51.7,94.45,35.31,55,13,3.69,few clouds,2021-10-09 15:30:40
527,Waitara,NZ,-38.925,174.25,50.99,90,37,7.96,scattered clouds,2021-10-09 15:30:40
528,Talara,PE,-4.5772,-81.2719,77.76,65,0,8.05,clear sky,2021-10-09 15:30:41
529,Abomey,BJ,7.1829,1.9912,83.7,77,99,4.23,light rain,2021-10-09 15:30:41
530,Port-Cartier,CA,50.0334,-66.8654,50.22,58,8,4.54,clear sky,2021-10-09 15:30:41
531,Kokemaki,FI,61.2565,22.3564,55.63,93,100,5.39,overcast clouds,2021-10-09 15:30:42
532,Cap Malheureux,MU,-19.9842,57.6142,73.89,75,12,7.0,few clouds,2021-10-09 15:30:43
533,Coahuayana,MX,18.7333,-103.6833,83.68,83,74,1.83,broken clouds,2021-10-09 15:24:52
534,Impfondo,CG,1.6381,18.0667,85.8,61,84,1.81,broken clouds,2021-10-09 15:30:43
535,Sao Jose Do Belmonte,BR,-7.8614,-38.7597,95.05,23,78,9.82,broken clouds,2021-10-09 15:30:44
536,Villa Hayes,PY,-25.0931,-57.5236,73.49,100,90,8.05,overcast clouds,2021-10-09 15:30:44
537,La Sarre,CA,48.8002,-79.1996,59.5,78,98,7.05,overcast clouds,2021-10-09 15:30:06
538,San Andres,CO,12.5847,-81.7006,87.82,70,20,11.5,few clouds,2021-10-09 15:26:34
539,Westport,US,41.1415,-73.3579,69.1,72,90,1.99,overcast clouds,2021-10-09 15:22:37
540,Weligama,LK,5.9667,80.4167,80.08,84,99,10.56,overcast clouds,2021-10-09 15:30:46
541,Kamaishi,JP,39.2667,141.8833,59.9,87,52,6.58,broken clouds,2021-10-09 15:30:46
542,Coaldale,CA,49.7167,-112.6185,47.88,40,20,11.5,few clouds,2021-10-09 15:30:02
543,Kaseda,JP,31.4167,130.3167,75.85,82,25,14.56,scattered clouds,2021-10-09 15:30:47
544,Naze,JP,28.3667,129.4833,76.37,85,21,20.27,few clouds,2021-10-09 15:24:23
545,Great Yarmouth,GB,52.6083,1.7305,66.34,79,48,5.97,scattered clouds,2021-10-09 15:30:47
546,Pryozerne,UA,45.2698,36.3303,58.51,58,100,12.37,overcast clouds,2021-10-09 15:30:48
547,Dyurtyuli,RU,55.4911,54.8688,43.93,77,100,7.47,overcast clouds,2021-10-09 15:30:48
548,Knysna,ZA,-34.0363,23.0471,62.98,66,64,7.67,broken clouds,2021-10-09 15:30:49
549,Kita,ML,13.0349,-9.4895,95.18,34,85,5.14,overcast clouds,2021-10-09 15:30:49
550,Bandundu,CD,-3.3167,17.3667,86.38,59,85,4.18,overcast clouds,2021-10-09 15:30:49
551,Hambantota,LK,6.1241,81.1185,80.94,89,0,3.44,clear sky,2021-10-09 15:26:23
552,Kirakira,SB,-10.4544,161.9205,78.42,84,99,2.73,overcast clouds,2021-10-09 15:30:50
553,Haicheng,CN,40.8516,122.7475,60.93,97,100,11.83,light rain,2021-10-09 15:30:50
554,Altamira,BR,-3.2033,-52.2064,91.49,58,75,4.61,broken clouds,2021-10-09 15:30:51
555,Tommot,RU,58.9564,126.2925,26.19,96,36,3.15,scattered clouds,2021-10-09 15:30:51
556,Chara,RU,56.9064,118.2631,30.27,64,6,2.44,clear sky,2021-10-09 15:30:51
557,Magadan,RU,59.5667,150.8,31.03,60,0,4.21,clear sky,2021-10-09 15:30:52
558,Wanning,CN,18.8003,110.3967,78.28,84,97,11.01,overcast clouds,2021-10-09 15:30:52
559,Lodja,CD,-3.4833,23.4333,78.48,73,92,2.26,overcast clouds,2021-10-09 15:30:52
560,Uruzgan,AF,32.8333,66.0,60.8,25,0,1.59,clear sky,2021-10-09 15:30:53
561,Moyale,KE,3.5167,39.0584,77.56,49,100,10.69,overcast clouds,2021-10-09 15:30:53
562,Vestmannaeyjar,IS,63.4427,-20.2734,49.19,93,40,14.97,scattered clouds,2021-10-09 15:23:48
563,Kijang,KR,35.2442,129.2139,71.33,91,22,6.35,few clouds,2021-10-09 15:30:54
564,Gorontalo,ID,0.5412,123.0595,76.35,91,100,1.97,overcast clouds,2021-10-09 15:30:55
565,Marondera,ZW,-18.1853,31.5519,77.99,27,40,7.85,scattered clouds,2021-10-09 15:30:56
566,Xapuri,BR,-10.6517,-68.5044,88.45,36,43,3.67,scattered clouds,2021-10-09 15:30:56
567,Alekseyevka,RU,50.6309,38.6903,47.1,40,100,7.31,overcast clouds,2021-10-09 15:30:56
568,Skjervoy,NO,70.0311,20.9714,48.63,84,100,11.32,overcast clouds,2021-10-09 15:30:57
569,Key West,US,24.5557,-81.7826,89.6,69,1,9.22,clear sky,2021-10-09 15:30:00
570,Presidencia Roque Saenz Pena,AR,-26.7852,-60.4388,79.68,55,91,9.42,overcast clouds,2021-10-09 15:30:57
571,Denpasar,ID,-8.65,115.2167,78.46,88,40,4.61,scattered clouds,2021-10-09 15:30:58
572,Harqalah,TN,36.0303,10.509,82.99,38,40,13.8,scattered clouds,2021-10-09 15:30:58
573,Launceston,AU,-41.45,147.1667,47.8,82,10,1.99,clear sky,2021-10-09 15:24:16
574,Senneterre,CA,48.3835,-77.2328,61.02,62,34,8.97,scattered clouds,2021-10-09 15:30:58
575,Paysandu,UY,-32.3214,-58.0756,69.6,52,92,13.65,overcast clouds,2021-10-09 15:30:59
576,Tawau,MY,4.2498,117.8871,78.93,94,100,3.04,light rain,2021-10-09 15:31:00
577,Yantal,RU,56.8471,105.2542,39.69,87,100,12.5,overcast clouds,2021-10-09 15:31:00
578,Iracoubo,GF,5.4802,-53.2011,87.21,63,100,11.05,overcast clouds,2021-10-09 15:31:01
579,Lixourion,GR,38.2019,20.4314,73.26,73,40,6.91,scattered clouds,2021-10-09 15:31:02
580,Taoudenni,ML,22.6783,-3.9836,105.22,6,82,0.76,broken clouds,2021-10-09 15:21:10
581,Vila Franca Do Campo,PT,37.7167,-25.4333,73.81,66,22,9.57,few clouds,2021-10-09 15:31:03
582,Port Orange,US,29.1383,-80.9956,82.06,64,75,9.22,broken clouds,2021-10-09 15:27:27
583,Nichinan,JP,31.6,131.3667,75.76,84,73,13.44,broken clouds,2021-10-09 15:31:03
584,Humaita,BR,-7.5061,-63.0208,97.41,38,100,4.32,overcast clouds,2021-10-09 15:31:03
585,Pokrovsk,UA,48.282,37.1758,49.95,24,100,11.77,overcast clouds,2021-10-09 15:31:04
586,Hirara,JP,24.8,125.2833,82.65,80,17,22.46,few clouds,2021-10-09 15:31:04
587,Havelock,US,34.8791,-76.9013,75.18,83,20,3.0,few clouds,2021-10-09 15:31:04
588,Bilibino,RU,68.0546,166.4372,-3.14,99,93,2.68,overcast clouds,2021-10-09 15:31:05
589,Zhob,PK,31.3411,69.4481,75.13,13,0,7.58,clear sky,2021-10-09 15:31:05
590,Camacha,PT,33.0833,-16.3333,72.36,60,40,17.27,scattered clouds,2021-10-09 15:25:02
591,Manacor,ES,39.5696,3.2096,75.31,58,4,11.86,clear sky,2021-10-09 15:31:06
592,Gillette,US,44.2911,-105.5022,50.68,92,90,5.01,overcast clouds,2021-10-09 15:22:59
593,Savannah Bight,HN,16.45,-85.85,84.99,78,62,5.35,broken clouds,2021-10-09 15:31:06
594,Port Hardy,CA,50.6996,-127.4199,48.38,93,90,12.66,moderate rain,2021-10-09 15:23:40
595,Osinovo,RU,55.8809,48.881,46.49,75,96,5.48,light rain,2021-10-09 15:31:08
596,Pakxe,LA,15.1167,105.7833,74.26,96,98,2.17,overcast clouds,2021-10-09 15:31:08
597,Pacific Grove,US,36.6177,-121.9166,57.31,74,90,1.99,overcast clouds,2021-10-09 15:21:10
598,San Patricio,US,28.017,-97.5169,82.85,62,35,6.38,scattered clouds,2021-10-09 15:23:49
599,Smithers,CA,54.7804,-127.1743,35.92,100,75,2.3,broken clouds,2021-10-09 15:30:05
600,Rabo De Peixe,PT,37.8,-25.5833,72.91,68,20,13.8,few clouds,2021-10-09 15:31:10
601,Lima,PE,-12.0432,-77.0282,61.14,77,90,3.44,mist,2021-10-09 15:22:26
602,Wageningen,NL,51.9667,5.6667,64.94,72,20,5.75,few clouds,2021-10-09 15:31:10
603,Pitimbu,BR,-7.4706,-34.8086,86.59,67,81,14.83,broken clouds,2021-10-09 15:31:12
604,Port Moresby,PG,-9.4431,147.1797,76.42,94,40,4.61,scattered clouds,2021-10-09 15:31:12
605,Sweetwater,US,25.7634,-80.3731,88.02,77,40,1.01,scattered clouds,2021-10-09 15:31:13
606,Blackwater,AU,-23.5833,148.8833,65.97,84,0,12.08,clear sky,2021-10-09 15:31:13
607,Marawi,PH,7.9986,124.2928,64.65,91,100,0.45,light rain,2021-10-09 15:31:14
608,Jiangyou,CN,31.7667,104.7167,61.23,94,100,5.82,light rain,2021-10-09 15:31:14
609,Genhe,CN,50.7833,121.5167,36.19,97,100,7.4,overcast clouds,2021-10-09 15:31:14
610,Muroto,JP,33.2833,134.15,76.91,72,13,17.07,few clouds,2021-10-09 15:31:15
611,Ballarat,AU,-37.5662,143.8496,47.5,98,100,3.06,overcast clouds,2021-10-09 15:31:16
612,Dunedin,NZ,-45.8742,170.5036,49.8,90,3,1.99,clear sky,2021-10-09 15:24:48
613,Nantucket,US,41.2835,-70.0995,66.31,72,40,17.27,scattered clouds,2021-10-09 15:21:33
614,Bartica,GY,6.4,-58.6167,89.92,52,53,2.42,broken clouds,2021-10-09 15:31:17
615,Daliang,CN,22.8504,113.247,78.71,91,100,16.31,light rain,2021-10-09 15:31:17
616,Rawson,AR,-43.3002,-65.1023,67.24,35,0,2.98,clear sky,2021-10-09 15:21:04
617,Pirassununga,BR,-21.9961,-47.4258,83.86,54,40,3.44,scattered clouds,2021-10-09 15:31:18
618,Kruisfontein,ZA,-34.0033,24.7314,65.88,54,8,18.86,clear sky,2021-10-09 15:26:24
619,Lodwar,KE,3.1191,35.5973,94.33,29,79,9.71,broken clouds,2021-10-09 15:31:18
620,Armeria,MX,18.9333,-103.9667,83.5,75,82,2.48,broken clouds,2021-10-09 15:31:19
621,Conde,BR,-7.2597,-34.9075,85.46,58,75,13.8,broken clouds,2021-10-09 15:31:19
622,Ginda,IN,30.6945,78.4932,59.59,68,0,5.73,clear sky,2021-10-09 15:31:19
623,Tiruchchendur,IN,8.4833,78.1167,82.35,76,100,17.09,overcast clouds,2021-10-09 15:31:20
624,Pingzhuang,CN,42.0372,119.2889,54.57,32,100,16.55,overcast clouds,2021-10-09 15:23:53
625,Jalu,LY,29.0331,21.5482,91.13,16,0,6.67,clear sky,2021-10-09 15:26:13
626,Rognan,NO,67.0953,15.3878,51.94,90,100,6.64,light rain,2021-10-09 15:31:20
627,Salinas,US,36.6777,-121.6555,58.5,67,90,10.36,overcast clouds,2021-10-09 15:31:21
628,Verkhnyaya Toyma,RU,62.2349,44.9985,38.93,95,100,3.44,overcast clouds,2021-10-09 15:31:21
629,Barao De Melgaco,BR,-16.1944,-55.9675,86.52,24,62,8.77,broken clouds,2021-10-09 15:31:21
630,Bakau,GM,13.4781,-16.6819,91.54,66,75,10.36,broken clouds,2021-10-09 15:31:22
631,Isangel,VU,-19.55,169.2667,62.71,94,36,4.61,scattered clouds,2021-10-09 15:25:12
632,Vieste,IT,41.8825,16.175,63.1,76,100,8.77,overcast clouds,2021-10-09 15:31:22
633,Krasnyy Chikoy,RU,50.3643,108.7512,29.26,92,53,3.0,broken clouds,2021-10-09 15:31:22
634,Lumsden,CA,50.6501,-104.8678,45.57,48,84,10.04,broken clouds,2021-10-09 15:31:23
635,Wufeng,CN,27.45,104.8333,53.35,97,100,3.65,light rain,2021-10-09 15:31:23
636,Yershichi,RU,53.6725,32.7542,42.04,70,0,2.93,clear sky,2021-10-09 15:31:23
637,Chulumani,BO,-16.4096,-67.5263,77.34,67,60,4.59,broken clouds,2021-10-09 15:31:24
638,Shimoda,JP,34.6667,138.95,69.1,87,14,12.08,few clouds,2021-10-09 15:25:08
639,Asau,RO,46.4333,26.4,50.76,49,98,7.54,overcast clouds,2021-10-09 15:26:49
640,Burnie,AU,-41.0667,145.9167,45.95,74,12,12.39,few clouds,2021-10-09 15:23:44
641,Merauke,ID,-8.4667,140.3333,79.39,84,71,14.05,broken clouds,2021-10-09 15:31:25
642,Alexandria,EG,31.2156,29.9553,77.0,59,0,14.41,clear sky,2021-10-09 15:29:18
643,Rincon,US,32.296,-81.2354,77.86,89,75,10.36,broken clouds,2021-10-09 15:31:25
644,Mount Gambier,AU,-37.8333,140.7667,42.71,87,90,8.05,overcast clouds,2021-10-09 15:25:39
645,Wajima,JP,37.4,136.9,69.51,87,39,7.02,scattered clouds,2021-10-09 15:31:26
646,Poum,NC,-20.2333,164.0167,72.48,72,53,15.41,broken clouds,2021-10-09 15:25:36
647,Sar-E Pul,AF,35.8333,66.1667,37.72,57,0,2.35,clear sky,2021-10-09 15:31:26
648,Trinidad,BO,-14.8333,-64.9,93.18,55,75,16.11,broken clouds,2021-10-09 15:31:27
649,Halifax,CA,44.6453,-63.5724,55.99,58,1,1.01,clear sky,2021-10-09 15:23:52
650,Mahajanga,MG,-15.7167,46.3167,80.62,65,20,8.05,few clouds,2021-10-09 15:31:27
651,Excelsior Springs,US,39.3392,-94.2261,73.27,78,1,4.61,clear sky,2021-10-09 15:31:27
652,Bugiri,UG,0.5714,33.7417,68.49,90,72,8.43,moderate rain,2021-10-09 15:31:29
653,Talnakh,RU,69.4865,88.3972,14.02,90,82,15.17,broken clouds,2021-10-09 15:24:42
654,Guaiba,BR,-30.1139,-51.325,71.51,77,75,27.63,broken clouds,2021-10-09 15:31:30
655,Vila Do Maio,CV,15.1333,-23.2167,92.19,79,7,14.12,clear sky,2021-10-09 15:31:31
656,Zinder,NE,13.8072,8.9881,100.36,20,0,4.61,clear sky,2021-10-09 15:31:31
657,Coquimbo,CL,-29.9533,-71.3436,60.53,63,20,8.05,few clouds,2021-10-09 15:25:35
658,Quatre Cocos,MU,-20.2078,57.7625,73.51,78,45,18.28,light rain,2021-10-09 15:31:31
659,Whithorn,JM,18.2604,-78.0378,83.46,57,62,3.2,broken clouds,2021-10-09 15:31:32
660,Baykit,RU,61.67,96.37,36.57,83,100,13.76,light rain,2021-10-09 15:31:32
661,Banamba,ML,13.55,-7.45,97.59,22,97,2.68,overcast clouds,2021-10-09 15:31:33
662,Pietersburg,ZA,-23.9045,29.4688,85.05,26,40,9.22,scattered clouds,2021-10-09 15:28:11
663,Freeport,US,40.6576,-73.5832,69.53,68,40,8.01,scattered clouds,2021-10-09 15:29:14
664,Kalmar,SE,56.6616,16.3616,57.13,72,38,5.75,scattered clouds,2021-10-09 15:31:33
665,Borup,DK,55.4947,11.9758,58.03,62,97,8.05,overcast clouds,2021-10-09 15:31:34
666,Ketchikan,US,55.3422,-131.6461,46.38,87,75,4.61,light rain,2021-10-09 15:25:16
667,Nangalisan,PH,16.4,120.55,65.66,90,73,3.29,broken clouds,2021-10-09 15:31:34
668,Goundam,ML,16.4145,-3.6708,103.5,6,25,8.79,scattered clouds,2021-10-09 15:24:53
669,Marsh Harbour,BS,26.5412,-77.0636,82.53,67,90,1.81,overcast clouds,2021-10-09 15:31:35
670,Hidalgotitlan,MX,17.7833,-94.6333,78.82,90,99,5.75,overcast clouds,2021-10-09 15:31:35
671,San Policarpo,PH,12.1791,125.5072,79.88,81,100,17.4,moderate rain,2021-10-09 15:26:06
672,Kenai,US,60.5544,-151.2583,44.65,86,90,9.22,light rain,2021-10-09 15:31:36
673,Moreira Sales,BR,-24.0622,-53.0069,64.87,95,100,8.77,heavy intensity rain,2021-10-09 15:31:36
674,Nan,TH,18.8333,100.6667,73.47,97,100,1.1,overcast clouds,2021-10-09 15:31:37
675,Telfs,AT,47.3,11.0667,64.56,79,2,3.8,clear sky,2021-10-09 15:31:37
676,Aragarcas,BR,-15.8975,-52.2508,86.65,62,0,0.0,clear sky,2021-10-09 15:31:37
677,Salalah,OM,17.0151,54.0924,82.49,83,20,8.05,few clouds,2021-10-09 15:23:01
678,Holme,DK,56.1138,10.1725,58.71,76,100,7.56,overcast clouds,2021-10-09 15:31:38
679,Ternate,ID,0.8,127.4,81.09,80,100,2.35,overcast clouds,2021-10-09 15:31:39
680,Nago,JP,26.5881,127.9761,82.47,82,8,17.18,clear sky,2021-10-09 15:31:39
